<?xml version="1.0"?>
<echobase xll="-73.6" yll="45.48" xtr="-73.54" ytr="45.54"><street><tile id="0" name="n45w742024.o5m"/><tile id="1" name="n45w742124.o5m"/><tile id="2" name="n45w742224.o5m"/><tile id="3" name="n45w742025.o5m"/><tile id="4" name="n45w742125.o5m"/><tile id="5" name="n45w742225.o5m"/><tile id="6" name="n45w742026.o5m"/><tile id="7" name="n45w742126.o5m"/><tile id="8" name="n45w742226.o5m"/></street><terrain><tile id="0" name="n45w742024.asc"/><tile id="1" name="n45w742124.asc"/><tile id="2" name="n45w742224.asc"/><tile id="3" name="n45w742025.asc"/><tile id="4" name="n45w742125.asc"/><tile id="5" name="n45w742225.asc"/><tile id="6" name="n45w742026.asc"/><tile id="7" name="n45w742126.asc"/><tile id="8" name="n45w742226.asc"/></terrain>


<audio><marker user_id="0" author="Kim" latitude="45.521461" longitude="-73.574504" location="4001 Rue Berri, Montreal Quebec, CA" date="2012-02-18" time="14:45:43" weather="" info1="" info2="" soundfile="13.ogg"/><marker user_id="0" author="Widge" latitude="45.522779" longitude="-73.574109" location="(null) Avenue de Chateaubriand, Montreal Quebec, CA" date="2012-02-18" time="14:51:51" weather="" info1="Walking past" info2="" soundfile="8.ogg"/><marker user_id="0" author="Widge" latitude="45.521774" longitude="-73.574935" location="511 Avenue Duluth Est, Montreal Quebec, CA" date="2012-02-18" time="14:48:11" weather="" info1="Birkenstock" info2="" soundfile="8.ogg"/><marker user_id="0" author="Widge" latitude="45.521430" longitude="-73.575044" location="470 Avenue Duluth Est, Montreal Quebec, CA" date="2012-02-18" time="14:45:07" weather="" info1="" info2="" soundfile="33.ogg"/><marker user_id="0" author="Kendra" latitude="45.520252" longitude="-73.571815" location="Intersection" date="2012-02-18" time="14:39:11" weather="Sunny Icey" info1="" info2="" soundfile="28.ogg"/><marker user_id="0" author="Kim" latitude="45.521688" longitude="-73.574444" location="518 Avenue Duluth Est, Montreal Quebec, CA" date="2012-02-18" time="14:03:14" weather="" info1="" info2="" soundfile="36.ogg"/><marker user_id="0" author="Kim" latitude="45.521745" longitude="-73.574432" location="4010 Avenue de Chateaubriand, Montreal Quebec, CA" date="2012-02-18" time="14:05:09" weather="" info1="" info2="" soundfile="5.ogg"/><marker user_id="0" author="Kim" latitude="45.521660" longitude="-73.574544" location="518 Avenue Duluth Est, Montreal Quebec, CA" date="2012-02-18" time="14:06:45" weather="" info1="" info2="" soundfile="34.ogg"/><marker user_id="0" author="Kim" latitude="45.521675" longitude="-73.574490" location="4001 Rue Berri, Montreal Quebec, CA" date="2012-02-18" time="14:08:46" weather="" info1="" info2="" soundfile="26.ogg"/><marker user_id="0" author="Kk" latitude="45.521540" longitude="-73.574409" location="" date="2012-02-18" time="14:20:22" weather="" info1="" info2="" soundfile="31.ogg"/><marker user_id="0" author="Kendra" latitude="45.521676" longitude="-73.574485" location="Berri" date="2012-02-18" time="14:20:20" weather="Breezy" info1="Broken February Glass" info2="" soundfile="13.ogg"/><marker user_id="0" author="Arwen" latitude="45.520675" longitude="-73.572090" location="Berri2" date="2012-02-18" time="14:21:35" weather="" info1="" info2="" soundfile="7.ogg"/><marker user_id="0" author="Widge" latitude="45.522131" longitude="-73.576488" location="Alley West Of Berry" date="2012-02-18" time="14:24:16" weather="Sunny" info1="" info2="" soundfile="27.ogg"/><marker user_id="0" author="Arwen" latitude="45.518886" longitude="-73.568484" location="Oboro To Sherbrooke Metro" date="2012-02-18" time="14:22:52" weather="" info1="" info2="" soundfile="22.ogg"/><marker user_id="0" author="Arwen" latitude="45.518886" longitude="-73.568484" location="Sherbrooke Metro Upstairs" date="2012-02-18" time="14:28:31" weather="" info1="" info2="" soundfile="1.ogg"/><marker user_id="0" author="Kk" latitude="45.521612" longitude="-73.575338" location="" date="2012-02-18" time="14:24:37" weather="" info1="Drip" info2="" soundfile="1.ogg"/><marker user_id="0" author="Widge" latitude="45.522120" longitude="-73.576449" location="4072 Rue Berri, Montreal Quebec, CA" date="2012-02-18" time="14:29:56" weather="" info1="Water drops" info2="" soundfile="30.ogg"/><marker user_id="0" author="" latitude="45.521592" longitude="-73.574430" location="518 Avenue Duluth Est, Montréal Québec, CA" date="2012-02-18" time="14:33:25" weather="" info1="" info2="" soundfile="11.ogg"/><marker user_id="0" author="Kendra" latitude="45.521168" longitude="-73.573660" location="Berri Puddles" date="2012-02-18" time="14:24:40" weather="" info1="" info2="" soundfile="24.ogg"/><marker user_id="0" author="Arwen" latitude="45.518886" longitude="-73.568484" location="Metro Escalator" date="2012-02-18" time="14:31:20" weather="" info1="" info2="" soundfile="16.ogg"/><marker user_id="0" author="Widge" latitude="45.522314" longitude="-73.577244" location="4089 Rue Rivard, Montreal Quebec, CA" date="2012-02-18" time="14:34:29" weather="" info1="Bottle kick" info2="" soundfile="29.ogg"/><marker user_id="0" author="Arwen" latitude="45.518886" longitude="-73.568484" location="Sherbrooke Metro" date="2012-02-18" time="14:34:11" weather="" info1="" info2="" soundfile="24.ogg"/><marker user_id="0" author="Widge" latitude="45.521399" longitude="-73.575443" location="4089 Rue Rivard, Montreal Quebec, CA" date="2012-02-18" time="14:40:22" weather="" info1="Mailbox" info2="" soundfile="36.ogg"/><marker user_id="0" author="Arwen" latitude="45.518886" longitude="-73.568484" location="Sherbrooke Metro" date="2012-02-18" time="14:43:54" weather="" info1="Hummmmmm" info2="" soundfile="32.ogg"/><marker user_id="0" author="Arwen" latitude="45.521482" longitude="-73.574274" location="Berri" date="2012-02-18" time="14:48:43" weather="Sunny" info1="" info2="" soundfile="25.ogg"/><marker user_id="0" author="" latitude="45.520293" longitude="-73.572113" location="" date="2012-02-18" time="14:45:51" weather="" info1="" info2="" soundfile="31.ogg"/><marker user_id="0" author="Widge" latitude="45.521671" longitude="-73.574474" location="518 Avenue Duluth Est, Montreal Quebec, CA" date="2012-02-18" time="13:57:08" weather="Inside Lab" info1="Owen explaining app" info2="" soundfile="6.ogg"/><marker user_id="0" author="Owen" latitude="45.521805" longitude="-73.574582" location="4001 Rue Berri, Montreal Quebec, CA" date="2012-02-18" time="13:56:58" weather="" info1="" info2="" soundfile="1.ogg"/><marker user_id="0" author="Owen" latitude="45.521695" longitude="-73.574450" location="4010 Avenue de Chateaubriand, Montreal Quebec, CA" date="2012-02-18" time="11:07:46" weather="" info1="" info2="" soundfile="29.ogg"/><marker user_id="0" author="Widge" latitude="45.509491" longitude="-73.563600" location="CIBL -Atrium Du 2-22" date="2012-02-25" time="22:21:22" weather="Nuit Blanche" info1="" info2="" soundfile="23.ogg"/><marker user_id="0" author="Widge" latitude="45.518538" longitude="-73.568194" location="Metro" date="2012-02-18" time="17:37:23" weather="" info1="Inside Metro Sherbrooke" info2="" soundfile="37.ogg"/><marker user_id="0" author="Widge" latitude="45.522238" longitude="-73.574494" location="(null) Avenue Duluth Est, Montreal Quebec, CA" date="2012-02-18" time="14:58:23" weather="" info1="Chocolat" info2="" soundfile="3.ogg"/><marker user_id="0" author="Widge" latitude="45.513761" longitude="-73.562591" location="Cinémathèque Québécoise" date="2012-02-21" time="09:41:55" weather="Before The RVCQ Transmedia Presentation" info1="" info2="" soundfile="30.ogg"/><marker user_id="0" author="" latitude="45.521604" longitude="-73.574303" location="4001 Rue Berri, Montréal Québec, CA" date="2012-02-18" time="14:57:51" weather="" info1="" info2="" soundfile="5.ogg"/><marker user_id="0" author="" latitude="45.521654" longitude="-73.574743" location="" date="2012-02-18" time="14:49:19" weather="" info1="" info2="" soundfile="35.ogg"/><marker user_id="0" author="Widge" latitude="45.518538" longitude="-73.568194" location="Metro Sherbrooke" date="2012-02-18" time="17:41:49" weather="" info1="Ralentissement de service" info2="" soundfile="19.ogg"/><marker user_id="0" author="Widge" latitude="45.521779" longitude="-73.574847" location="501 Avenue Duluth Est, Montreal Quebec, CA" date="2012-02-18" time="14:49:07" weather="" info1="Bell" info2="" soundfile="1.ogg"/><marker user_id="0" author="Qingfeng" latitude="45.496590" longitude="-73.578631" location="Concordia" date="2012-01-03" time="13:50:43" weather="On Street" info1="Test" info2="Moving audio. " soundfile="1.ogg"/><marker user_id="0" author="Widge" latitude="45.505113" longitude="-73.568147" location="(null) Sainte-Catherine St W, Montreal Quebec, CA" date="2012-03-08" time="17:04:27" weather="Student Strike" info1="" info2="" soundfile="13.ogg"/><marker user_id="0" author="Widge" latitude="45.509676" longitude="-73.564115" location="" date="2012-03-08" time="16:53:17" weather="Student Strike" info1="" info2="" soundfile="27.ogg"/><marker user_id="0" author="Widge" latitude="45.518972" longitude="-73.555668" location="405 Sainte-Catherine St E, Montreal Quebec, CA" date="2012-03-08" time="15:23:35" weather="Student Strike" info1="" info2="" soundfile="32.ogg"/><marker user_id="0" author="Widge" latitude="45.518302" longitude="-73.552641" location="(null) Rue Cartier, Montreal Quebec, CA" date="2012-03-08" time="16:33:27" weather="Student Strike" info1="" info2="" soundfile="26.ogg"/><marker user_id="0" author="Widge" latitude="45.511851" longitude="-73.558781" location="(null) Boulevard René-Lévesque Est, Montreal Quebec, CA" date="2012-03-08" time="16:44:28" weather="Student Strike" info1="" info2="" soundfile="33.ogg"/><marker user_id="0" author="Widge" latitude="45.526344" longitude="-73.546883" location="(null) Jacques-Cartier Bridge, Montreal Quebec, CA" date="2012-03-08" time="15:53:55" weather="Student Strike" info1="" info2="" soundfile="19.ogg"/><marker user_id="0" author="Widge" latitude="45.499596" longitude="-73.573283" location="1100 Sainte-Catherine St W, Montreal Quebec, CA" date="2012-03-08" time="17:20:31" weather="Student Strike" info1="" info2="" soundfile="9.ogg"/><marker user_id="0" author="Widge" latitude="45.493339" longitude="-73.581260" location="" date="2012-03-08" time="17:45:51" weather="Student Strike" info1="" info2="" soundfile="34.ogg"/><marker user_id="0" author="Widge" latitude="45.496166" longitude="-73.578892" location="(null) Rue Cypress, Montreal Quebec, CA" date="2012-03-08" time="17:32:41" weather="Student Strike" info1="" info2="" soundfile="19.ogg"/><marker user_id="0" author="Widge" latitude="45.497186" longitude="-73.578606" location="(null) Rue Centre, Montreal Quebec, CA" date="2012-03-21" time="16:19:19" weather="Student Strike" info1="" info2="" soundfile="38.ogg"/><marker user_id="0" author="Widge" latitude="45.515331" longitude="-73.559393" location="Émilie-Gamelim" date="2012-04-25" time="21:11:09" weather="Student Strike" info1="After StaLine Beauchamp" info2="" soundfile="5.ogg"/><marker user_id="0" author="Owen" latitude="45.517304" longitude="-73.588514" location="4500 Avenue du Parc, Montreal Quebec, CA" date="2012-04-14" time="13:49:59" weather="Manif Greve Etudiant" info1="" info2="" soundfile="4.ogg"/><marker user_id="0" author="Owen" latitude="45.517342" longitude="-73.588572" location="Jeanne Nance Parc" date="2012-04-14" time="13:52:15" weather="Manif Greve Etudiant" info1="" info2="" soundfile="14.ogg"/><marker user_id="0" author="Owen" latitude="45.520119" longitude="-73.586379" location="St Laurent Mt Royal" date="2012-04-14" time="14:35:13" weather="Greve Erudite Manif" info1="" info2="" soundfile="34.ogg"/><marker user_id="0" author="Owen" latitude="45.517273" longitude="-73.588513" location="(null) Avenue du Mont-Royal Ouest, Montreal Quebec, CA" date="2012-04-14" time="13:54:07" weather="Manif Greve Etudiant" info1="Revolution tranquil le" info2="" soundfile="28.ogg"/><marker user_id="0" author="Owen" latitude="45.519071" longitude="-73.587333" location="201 Avenue du Mont-Royal Ouest, Montreal Quebec, CA" date="2012-04-14" time="14:28:55" weather="" info1="" info2="" soundfile="11.ogg"/><marker user_id="0" author="Owen" latitude="45.517329" longitude="-73.588514" location="219 Avenue du Mont-Royal Ouest, Montreal Quebec, CA" date="2012-04-14" time="14:10:38" weather="Manif Greve Etudiant" info1="" info2="" soundfile="27.ogg"/><marker user_id="0" author="Widge" latitude="45.517009" longitude="-73.588178" location="4505 Avenue du Parc, Montreal Quebec, CA" date="2012-04-14" time="13:20:09" weather="Manifestation" info1="Accessible education" info2="" soundfile="13.ogg"/><marker user_id="0" author="Widge" latitude="45.504730" longitude="-73.563766" location="(null) Rue Charlevoix, Montreal Quebec, CA" date="2012-04-07" time="23:37:11" weather="Loft Party" info1="Huxli Feral Son (band)" info2="" soundfile="2.ogg"/></audio></echobase>